[{"Id":"4500","Iata":"MAO","Icao":"SBEG","Name":"Eduardo Gomes International Airport","Location":"Manaus, Amazonas, Brazil","Street_number":"1350","Street":"Av. Santos Dumont","City":"","County":"Manaus","State":"Amazonas","Country_iso":"BR","Country":"Brazil","Postal_code":"69041-000","Phone":"+55 92 3652-1210","Latitude":"-3.0358474","Longitude":"-60.046326","Uct":"-240","Website":"http://www4.infraero.gov.br/aeroportos/aeroporto-internacional-de-manaus-eduardo-gomes/"},{"Id":"6029","Iata":"POA","Icao":"SBPA","Name":"Salgado Filho International Airport","Location":"Porto Alegre, Rio Grande do Sul, Brazil","Street_number":"","Street":"","City":"","County":"Porto Alegre","State":"State of Rio Grande do Sul","Country_iso":"BR","Country":"Brazil","Postal_code":"","Phone":"+55 51 3358-2000","Latitude":"-29.993473","Longitude":"-51.17538","Uct":"-180","Website":"http://www4.infraero.gov.br/aeroportos/aeroporto-internacional-de-porto-alegre-salgado-filho/"},{"Id":"633","Iata":"BEL","Icao":"SBBE","Name":"Val de Cans International Airport","Location":"Belém, Pará, Brazil","Street_number":"s/n","Street":"Avenida Júlio César","City":"","County":"Belém","State":"Pará","Country_iso":"BR","Country":"Brazil","Postal_code":"66115-970","Phone":"+55 91 3210-6000","Latitude":"-1.3820615","Longitude":"-48.477524","Uct":"-180","Website":"http://www4.infraero.gov.br/aeroportos/aeroporto-internacional-de-belem-val-de-cans-julio-cezar-ribeiro/"},{"Id":"7941","Iata":"VCP","Icao":"SBKP","Name":"Viracopos/Campinas International Airport","Location":"São Paulo / Campinas, São Paulo, Brazil","Street_number":"km 66","Street":"Rodovia Santos Dumont","City":"","County":"Campinas","State":"São Paulo","Country_iso":"BR","Country":"Brazil","Postal_code":"13055-900","Phone":"+55 19 3725-5000","Latitude":"-23.008205","Longitude":"-47.13757","Uct":"-180","Website":"http://www.viracopos.com/"},{"Id":"953","Iata":"BSB","Icao":"SBBR","Name":"Brasília International Airport (Presidente J. Kubitschek Int'l Airport)","Location":"Brasília, Distrito Federal, Brazil","Street_number":"","Street":"Lago Sul","City":"","County":"Brasília","State":"Distrito Federal","Country_iso":"BR","Country":"Brazil","Postal_code":"71608-900","Phone":"+55 61 3364-9000","Latitude":"-15.869737","Longitude":"-47.917236","Uct":"-180","Website":"http://www.bsb.aero/"},{"Id":"6335","Iata":"REC","Icao":"SBRF","Name":"Recife/Guararapes–Gilberto Freyre International Airport","Location":"Recife, Pernambuco, Brazil","Street_number":"s/n","Street":"Praça Ministro Salgado Filho","City":"","County":"Recife","State":"Pernambuco","Country_iso":"BR","Country":"Brazil","Postal_code":"51210-902","Phone":"+55 81 3322-4188","Latitude":"-8.125932","Longitude":"-34.924015","Uct":"-180","Website":"http://www4.infraero.gov.br/aeroportos/aeroporto-internacional-do-recife-guararapes-gilberto-freyre/"},{"Id":"6647","Iata":"SCL","Icao":"SCEL","Name":"Comodoro Arturo Merino Benítez International Airport","Location":"Santiago, Chile","Street_number":"","Street":"Aviador David Fuentes","City":"Pudahuel","County":"Santiago","State":"Región Metropolitana","Country_iso":"CL","Country":"Chile","Postal_code":"","Phone":"+56 2 2690 1752","Latitude":"-33.39051","Longitude":"-70.79381","Uct":"-180","Website":"https://www.nuevopudahuel.cl/"},{"Id":"4308","Iata":"LOS","Icao":"DNMM","Name":"Murtala Muhammed International Airport","Location":"Lagos, Nigeria","Street_number":"","Street":"","City":"Lagos","County":"","State":"Lagos","Country_iso":"NG","Country":"Nigeria","Postal_code":"","Phone":"+234 1 493 3385","Latitude":"6.5818186","Longitude":"3.3211348","Uct":"60","Website":"http://www.faan.gov.ng/mmia/"},{"Id":null,"Iata":null,"Icao":null,"Name":null,"Location":null,"Street_number":null,"Street":null,"City":null,"County":null,"State":null,"Country_iso":null,"Country":null,"Postal_code":null,"Phone":null,"Latitude":null,"Longitude":null,"Uct":null,"Website":null},{"Id":"4157","Iata":"LGG","Icao":"EBLG","Name":"Liège Airport","Location":"Liège, Belgium","Street_number":"","Street":"Rue de l’Aéroport","City":"Grâce-Hollogne","County":"Liège","State":"Wallonie","Country_iso":"BE","Country":"Belgium","Postal_code":"4460","Phone":"+32 4 234 84 11","Latitude":"50.64116","Longitude":"5.4479117","Uct":"120","Website":"http://www.liegeairport.com/"},{"Id":"75","Iata":"ADD","Icao":"HAAB","Name":"Bole International Airport","Location":"Addis Ababa, Ethiopia","Street_number":"","Street":"","City":"Addis Ababa","County":"North Shewa(R4)","State":"Oromia","Country_iso":"ET","Country":"Ethiopia","Postal_code":"","Phone":"+251 11 665 6666","Latitude":"8.980069","Longitude":"38.79893","Uct":"180","Website":"http://addisairport.com/"},{"Id":"2695","Iata":"GRU","Icao":"SBGR","Name":"São Paulo–Guarulhos International Airport","Location":"São Paulo, Brazil","Street_number":"s/nº","Street":"Rod. Hélio Smidt","City":"","County":"Guarulhos","State":"São Paulo","Country_iso":"BR","Country":"Brazil","Postal_code":"07190-100","Phone":"+55 11 2445-2945","Latitude":"-23.430573","Longitude":"-46.47304","Uct":"-180","Website":"http://www.gru.com.br/"},{"Id":null,"Iata":null,"Icao":null,"Name":null,"Location":null,"Street_number":null,"Street":null,"City":null,"County":null,"State":null,"Country_iso":null,"Country":null,"Postal_code":null,"Phone":null,"Latitude":null,"Longitude":null,"Uct":null,"Website":null},{"Id":"199","Iata":"AJU","Icao":"SBAR","Name":"Santa Maria Airport","Location":"Aracaju, Sergipe, Brazil","Street_number":"3249","Street":"Terminal Drive","City":"Santa Maria","County":"Santa Barbara County","State":"California","Country_iso":"US","Country":"United States","Postal_code":"93455","Phone":"+1 805-922-1726","Latitude":"34.89914","Longitude":"-120.44778","Uct":"-420","Website":"http://www.santamariaairport.com/"},{"Id":"4561","Iata":"MCZ","Icao":"SBMO","Name":"Zumbi dos Palmares International Airport","Location":"Maceió, Alagoas, Brazil","Street_number":"104","Street":"Rodovia BR","City":"","County":"Rio Largo","State":"Alagoas","Country_iso":"BR","Country":"Brazil","Postal_code":"57100-971","Phone":"+55 82 3036-5200","Latitude":"-9.511861","Longitude":"-35.793182","Uct":"-180","Website":"http://www4.infraero.gov.br/"},{"Id":"7019","Iata":"SSA","Icao":"SBSV","Name":"Deputado Luís Eduardo Magalhães International Airport","Location":"Salvador, Bahia, Brazil","Street_number":"","Street":"","City":"","County":"Salvador","State":"Bahia","Country_iso":"BR","Country":"Brazil","Postal_code":"41520-970","Phone":"+55 71 3204-1010","Latitude":"-12.911098","Longitude":"-38.33124","Uct":"-180","Website":"http://www4.infraero.gov.br/aeroportos/aeroporto-internacional-de-salvador-dep-luis-eduardo-magalhaes"},{"Id":"1429","Iata":"CNF","Icao":"SBCF","Name":"Tancredo Neves International Airport (Confins Int'l Airport)","Location":"Belo Horizonte, Minas Gerais, Brazil","Street_number":"s/n","Street":"LMG-800","City":"","County":"Confins","State":"Minas Gerais","Country_iso":"BR","Country":"Brazil","Postal_code":"33500-900","Phone":"+55 31 3689-2700","Latitude":"-19.634098","Longitude":"-43.965397","Uct":"-180","Website":"http://www.bh-airport.com.br/"},{"Id":"2363","Iata":"FOR","Icao":"SBFZ","Name":"Pinto Martins – Fortaleza International Airport","Location":"Fortaleza, Ceará, Brazil","Street_number":"","Street":"","City":"","County":"Fortaleza","State":"Ceará","Country_iso":"BR","Country":"Brazil","Postal_code":"60741-900","Phone":"+55 85 3392-1200","Latitude":"-3.7771554","Longitude":"-38.533096","Uct":"-180","Website":"http://www.infraero.gov.br/index.php/br/aeroportos/ceara/aeroporto-internacional-pinto-martins.html"},{"Id":"6028","Iata":"PNZ","Icao":"SBPL","Name":"Senador Nilo Coelho Airport","Location":"Petrolina, Pernambuco, Brazil","Street_number":"s/n","Street":"Rodovia BR 235 - km 11","City":"","County":"Petrolina","State":"Pernambuco","Country_iso":"BR","Country":"Brazil","Postal_code":"56313-900","Phone":"+55 87 3867-9600","Latitude":"-9.366508","Longitude":"-40.566074","Uct":"-180","Website":"http://www.infraero.gov.br/"},{"Id":"8988","Iata":"NAT","Icao":"SBSG","Name":"São Gonçalo do Amarante–Governador Aluízio Alves International Airport","Location":"Natal, Rio Grande do Norte, Brazil","Street_number":"","Street":"","City":"","County":"São Gonçalo do Amarante","State":"Rio Grande do Norte","Country_iso":"BR","Country":"Brazil","Postal_code":"59290-000","Phone":"+55 84 3343-6060","Latitude":"-5.7679067","Longitude":"-35.364033","Uct":"-180","Website":"http://www.natal.aero/"},{"Id":"4838","Iata":"MOC","Icao":"SBMK","Name":"Montes Claros/Mário Ribeiro Airport","Location":"Montes Claros, Minas Gerais, Brazil","Street_number":"","Street":"Avenida Comandante João Milton","City":"","County":"Montes Claros","State":"Minas Gerais","Country_iso":"BR","Country":"Brazil","Postal_code":"39404-844","Phone":"+55 38 3229-1200","Latitude":"-16.704617","Longitude":"-43.820087","Uct":"-180","Website":"http://www4.infraero.gov.br/aeroportos/aeroporto-de-montes-claros-mario-ribeiro/"},{"Id":null,"Iata":null,"Icao":null,"Name":null,"Location":null,"Street_number":null,"Street":null,"City":null,"County":null,"State":null,"Country_iso":null,"Country":null,"Postal_code":null,"Phone":null,"Latitude":null,"Longitude":null,"Uct":null,"Website":null},{"Id":"7994","Iata":"VIX","Icao":"SBVT","Name":"Eurico de Aguiar Salles Airport","Location":"Vitória, Espírito Santo, Brazil","Street_number":"3800","Street":"Avenida Fernando Ferrari","City":"","County":"Vitória","State":"Espírito Santo","Country_iso":"BR","Country":"Brazil","Postal_code":"29075-920","Phone":"+55 27 3235-6300","Latitude":"-20.257648","Longitude":"-40.283535","Uct":"-180","Website":"http://www.infraero.gov.br/index.php/br/aeroportos/espirito-santo/aeroporto-de-vitoria-eurico-de-aguiar-salles-vitoria-es.html"},{"Id":null,"Iata":null,"Icao":null,"Name":null,"Location":null,"Street_number":null,"Street":null,"City":null,"County":null,"State":null,"Country_iso":null,"Country":null,"Postal_code":null,"Phone":null,"Latitude":null,"Longitude":null,"Uct":null,"Website":null},{"Id":null,"Iata":null,"Icao":null,"Name":null,"Location":null,"Street_number":null,"Street":null,"City":null,"County":null,"State":null,"Country_iso":null,"Country":null,"Postal_code":null,"Phone":null,"Latitude":null,"Longitude":null,"Uct":null,"Website":null},{"Id":"7151","Iata":"SXO","Icao":"SWFX","Name":"São Félix do Araguaia Airport","Location":"São Félix do Araguaia, Mato Grosso, Brazil","Street_number":"1408","Street":"Avenida Aldenor M da Cunha","City":"","County":"São Félix do Araguaia","State":"Mato Grosso","Country_iso":"BR","Country":"Brazil","Postal_code":"78670-000","Phone":"+55 66 3522-1680","Latitude":"-11.632422","Longitude":"-50.685997","Uct":"-240","Website":""},{"Id":"1273","Iata":"CGB","Icao":"SBCY","Name":"Marechal Rondon International Airport","Location":"Cuiabá, Mato Grosso, Brazil","Street_number":"s/n","Street":"Avenida João Ponce de Arruda","City":"","County":"Várzea Grande","State":"Mato Grosso","Country_iso":"BR","Country":"Brazil","Postal_code":"78110-900","Phone":"+55 65 3614-2500","Latitude":"-15.653079","Longitude":"-56.117268","Uct":"-240","Website":"http://www4.infraero.gov.br/aeroportos/aeroporto-internacional-de-cuiaba-marechal-rondon/"},{"Id":"7348","Iata":"TGQ","Icao":"SWTS","Name":"Tangará da Serra Airport","Location":"Tangará da Serra, Mato Grosso, Brazil","Street_number":"","Street":"","City":"","County":"Tangará da Serra","State":"State of Mato Grosso","Country_iso":"BR","Country":"Brazil","Postal_code":"78300-000","Phone":"+55 65 3311-4800","Latitude":"-14.657461","Longitude":"-57.445904","Uct":"-240","Website":"http://www.tangaradaserra.mt.gov.br/"},{"Id":"3420","Iata":"JIA","Icao":"SWJN","Name":"Juína Airport","Location":"Juína, Mato Grosso, Brazil","Street_number":"","Street":"","City":"","County":"Juína","State":"State of Mato Grosso","Country_iso":"BR","Country":"Brazil","Postal_code":"78320-000","Phone":"","Latitude":"-11.417905","Longitude":"-58.708218","Uct":"-240","Website":""},{"Id":"182","Iata":"AIR","Icao":"SSOU","Name":"Aripuanã Airport","Location":"Aripuanã, Mato Grosso, Brazil","Street_number":"","Street":"Rua Beira Rio","City":"","County":"Colniza","State":"Mato Grosso","Country_iso":"BR","Country":"Brazil","Postal_code":"78335-000","Phone":"","Latitude":"-9.450131","Longitude":"-59.201378","Uct":"-240","Website":""},{"Id":null,"Iata":null,"Icao":null,"Name":null,"Location":null,"Street_number":null,"Street":null,"City":null,"County":null,"State":null,"Country_iso":null,"Country":null,"Postal_code":null,"Phone":null,"Latitude":null,"Longitude":null,"Uct":null,"Website":null},{"Id":"7054","Iata":"STM","Icao":"SBSN","Name":"Santarém-Maestro Wilson Fonseca Airport","Location":"Santarém, Pará, Brazil","Street_number":"s/n","Street":"Praça Eduardo Gomes","City":"","County":"Santarém","State":"Pará","Country_iso":"BR","Country":"Brazil","Postal_code":"","Phone":"+55 93 3522-4328","Latitude":"-2.4248295","Longitude":"-54.786243","Uct":"-180","Website":"http://www4.infraero.gov.br/aeroportos/aeroporto-de-santarem-maestro-wilson-fonseca/"},{"Id":"3301","Iata":"ITB","Icao":"SBIH","Name":"Itaituba Airport","Location":"Itaituba, Pará, Brazil","Street_number":"","Street":"","City":"","County":"Itaituba","State":"State of Pará","Country_iso":"BR","Country":"Brazil","Postal_code":"","Phone":"","Latitude":"-4.245743","Longitude":"-56.006847","Uct":"-180","Website":""},{"Id":"4963","Iata":"MTE","Icao":"SNMA","Name":"Monte Alegre Airport","Location":"Monte Alegre, Pará, Brazil","Street_number":"678-854","Street":"Avenida Desembargador Inácio Guilhon","City":"","County":"Monte Alegre","State":"Pará","Country_iso":"BR","Country":"Brazil","Postal_code":"68220-000","Phone":"","Latitude":"-1.9937029","Longitude":"-54.068874","Uct":"-180","Website":"http://www.emsampa.com.br/aeroportos/para_monte_alegre.htm"},{"Id":"1156","Iata":"CAU","Icao":"SNRU","Name":"Caruaru Airport (Oscar Laranjeiras Airport)","Location":"Caruaru, Pernambuco, Brazil","Street_number":"","Street":"Avenida Dr Oscár Laranjeira neto","City":"","County":"Caruaru","State":"Pernambuco","Country_iso":"BR","Country":"Brazil","Postal_code":"","Phone":"","Latitude":"-8.282731","Longitude":"-36.012905","Uct":"-180","Website":""},{"Id":"901","Iata":"BPG","Icao":"SBBW","Name":"Barra do Garças Airport","Location":"Barra do Garças, Mato Grosso, Brazil","Street_number":"","Street":"","City":"","County":"Barra do Garças","State":"Mato Grosso","Country_iso":"BR","Country":"Brazil","Postal_code":"78600-000","Phone":"+55 66 98404-7588","Latitude":"-15.858338","Longitude":"-52.39055","Uct":"-240","Website":"http://www.voeazul.com.br/"},{"Id":"2787","Iata":"GYN","Icao":"SBGO","Name":"Santa Genoveva Airport","Location":"Goiânia, Goiás, Brazil","Street_number":"s/n","Street":"Alameda 4","City":"","County":"Goiânia","State":"Goiás","Country_iso":"BR","Country":"Brazil","Postal_code":"74672-410","Phone":"+55 62 3265-1500","Latitude":"-16.632303","Longitude":"-49.216347","Uct":"-180","Website":"http://www4.infraero.gov.br/aeroportos/aeroporto-de-goiania-santa-genoveva/"},{"Id":"1041","Iata":"BVS","Icao":"SNVS","Name":"Breves Airport","Location":"Breves, Pará, Brazil","Street_number":"","Street":"","City":"","County":"","State":"","Country_iso":"","Country":"","Postal_code":"","Phone":"","Latitude":"0","Longitude":"0","Uct":"0","Website":""},{"Id":"4606","Iata":"MEU","Icao":"SBMD","Name":"Serra do Areão Airport","Location":"Monte Dourado, Pará, Brazil","Street_number":"","Street":"","City":"","County":"Almeirim","State":"State of Pará","Country_iso":"BR","Country":"Brazil","Postal_code":"68230-000","Phone":"","Latitude":"-0.8882582","Longitude":"-52.599552","Uct":"-180","Website":""},{"Id":null,"Iata":null,"Icao":null,"Name":null,"Location":null,"Street_number":null,"Street":null,"City":null,"County":null,"State":null,"Country_iso":null,"Country":null,"Postal_code":null,"Phone":null,"Latitude":null,"Longitude":null,"Uct":null,"Website":null},{"Id":"1279","Iata":"CGH","Icao":"SBSP","Name":"São Paulo–Congonhas Airport","Location":"São Paulo, São Paulo, Brazil","Street_number":"s/nº","Street":"Avenida Washington Luís","City":"","County":"São Paulo","State":"São Paulo","Country_iso":"BR","Country":"Brazil","Postal_code":"04626-911","Phone":"+55 11 5090-9000","Latitude":"-23.627325","Longitude":"-46.656586","Uct":"-180","Website":"http://www.infraero.com.br/index.php/br/aeroportos/sao-paulo/aeroporto-de-sao-paulo-congonhas.html"},{"Id":"6811","Iata":"SJK","Icao":"SBSJ","Name":"Professor Urbano Ernesto Stumpf Airport","Location":"São José dos Campos, São Paulo, Brazil","Street_number":"1941","Street":"Avenida Brigadeiro Faria Lima","City":"","County":"São José dos Campos","State":"São Paulo","Country_iso":"BR","Country":"Brazil","Postal_code":"12227-000","Phone":"+55 12 3946-3000","Latitude":"-23.225304","Longitude":"-45.861576","Uct":"-180","Website":"http://www.infraero.gov.br/"},{"Id":null,"Iata":null,"Icao":null,"Name":null,"Location":null,"Street_number":null,"Street":null,"City":null,"County":null,"State":null,"Country_iso":null,"Country":null,"Postal_code":null,"Phone":null,"Latitude":null,"Longitude":null,"Uct":null,"Website":null},{"Id":null,"Iata":null,"Icao":null,"Name":null,"Location":null,"Street_number":null,"Street":null,"City":null,"County":null,"State":null,"Country_iso":null,"Country":null,"Postal_code":null,"Phone":null,"Latitude":null,"Longitude":null,"Uct":null,"Website":null},{"Id":"6679","Iata":"SDU","Icao":"SBRJ","Name":"Santos Dumont Airport","Location":"Rio de Janeiro, Rio de Janeiro, Brazil","Street_number":"s/n","Street":"Praça Senador Salgado Filho","City":"","County":"Rio de Janeiro","State":"Rio de Janeiro","Country_iso":"BR","Country":"Brazil","Postal_code":"20021-340","Phone":"+55 21 3814-7070","Latitude":"-22.911144","Longitude":"-43.164875","Uct":"-180","Website":"http://www4.infraero.gov.br/aeroportos/aeroporto-do-rio-de-janeiro-santos-dumont/"},{"Id":"4586","Iata":"MEA","Icao":"SBME","Name":"Benedito Lacerda Airport","Location":"Macaé, Rio de Janeiro, Brazil","Street_number":"","Street":"","City":"","County":"","State":"","Country_iso":"","Country":"","Postal_code":"","Phone":"","Latitude":"0","Longitude":"0","Uct":"0","Website":""},{"Id":"1158","Iata":"CAW","Icao":"SBCP","Name":"Bartolomeu Lysandro Airport","Location":"Campos dos Goytacazes, Rio de Janeiro, Brazil","Street_number":"36-44","Street":"Estrada Brejo Grande","City":"","County":"Campos dos Goytacazes","State":"Rio de Janeiro","Country_iso":"BR","Country":"Brazil","Postal_code":"28093","Phone":"+55 22 2733-5022","Latitude":"-21.701117","Longitude":"-41.308186","Uct":"-180","Website":"http://www.infraero.gov.br/"},{"Id":null,"Iata":null,"Icao":null,"Name":null,"Location":null,"Street_number":null,"Street":null,"City":null,"County":null,"State":null,"Country_iso":null,"Country":null,"Postal_code":null,"Phone":null,"Latitude":null,"Longitude":null,"Uct":null,"Website":null},{"Id":null,"Iata":null,"Icao":null,"Name":null,"Location":null,"Street_number":null,"Street":null,"City":null,"County":null,"State":null,"Country_iso":null,"Country":null,"Postal_code":null,"Phone":null,"Latitude":null,"Longitude":null,"Uct":null,"Website":null},{"Id":null,"Iata":null,"Icao":null,"Name":null,"Location":null,"Street_number":null,"Street":null,"City":null,"County":null,"State":null,"Country_iso":null,"Country":null,"Postal_code":null,"Phone":null,"Latitude":null,"Longitude":null,"Uct":null,"Website":null},{"Id":null,"Iata":null,"Icao":null,"Name":null,"Location":null,"Street_number":null,"Street":null,"City":null,"County":null,"State":null,"Country_iso":null,"Country":null,"Postal_code":null,"Phone":null,"Latitude":null,"Longitude":null,"Uct":null,"Website":null},{"Id":"2754","Iata":"GUZ","Icao":"SNGA","Name":"Guarapari Airport","Location":"Guarapari, Espírito Santo, Brazil","Street_number":"187","Street":"Avenida Padre José Anchieta","City":"","County":"Guarapari","State":"Espírito Santo","Country_iso":"BR","Country":"Brazil","Postal_code":"29215-250","Phone":"+55 27 3361-2813","Latitude":"-20.647001","Longitude":"-40.490875","Uct":"-180","Website":""},{"Id":"1857","Iata":"DOH","Icao":"OTHH","Name":"Hamad International Airport","Location":"Doha, Qatar","Street_number":"","Street":"","City":"Doha","County":"","State":"Doha","Country_iso":"QA","Country":"Qatar","Postal_code":"","Phone":"+974 4010 6666","Latitude":"25.260595","Longitude":"51.613766","Uct":"180","Website":"http://www.dohahamadairport.com/"},{"Id":"2224","Iata":"EZE","Icao":"SAEZ","Name":"Ministro Pistarini International Airport","Location":"Buenos Aires, Argentina","Street_number":"","Street":"Autopista Tte Gral. Ricchieri Km 33,5","City":"Ezeiza","County":"Ezeiza","State":"Provincia de Buenos Aires","Country_iso":"AR","Country":"Argentina","Postal_code":"B1802","Phone":"+54 11 5480-6111","Latitude":"-34.815006","Longitude":"-58.53483","Uct":"-180","Website":"http://www.aa2000.com.ar/"},{"Id":"4424","Iata":"LUX","Icao":"ELLX","Name":"Luxembourg Findel Airport","Location":"Luxembourg, Luxembourg","Street_number":"","Street":"","City":"Luxembourg City","County":"Luxembourg","State":"Luxembourg District","Country_iso":"LU","Country":"Luxembourg","Postal_code":"2987","Phone":"+352 24 640","Latitude":"49.6289","Longitude":"6.2147446","Uct":"120","Website":"http://www.lux-airport.lu/"},{"Id":"1467","Iata":"COR","Icao":"SACO","Name":"Ingeniero Aeronáutico Ambrosio L.V. Taravella International Airport (Pajas Blancas)","Location":"Córdoba, Córdoba, Argentina","Street_number":"","Street":"","City":"ICAO","County":"","State":"Córdoba","Country_iso":"AR","Country":"Argentina","Postal_code":"","Phone":"+54 351 475-0881","Latitude":"-31.315437","Longitude":"-64.21232","Uct":"-180","Website":"http://www.aa2000.com.ar/"},{"Id":"393","Iata":"ASU","Icao":"SGAS","Name":"Silvio Pettirossi International Airport","Location":"Asunción, Paraguay","Street_number":"","Street":"Autopista Silvio Pettisossi","City":"Luque","County":"","State":"Departamento Central","Country_iso":"PY","Country":"Paraguay","Postal_code":"","Phone":"+595 21 688 2000","Latitude":"-25.241512","Longitude":"-57.514183","Uct":"-180","Website":"http://www.dinac.gov.py/v2/index.php?option=com_k2&view=itemlist&task=category&id=49:aeropuerto-internacional-silvio-pettirossi&Itemid=205"},{"Id":"4489","Iata":"MAD","Icao":"LEMD","Name":"Adolfo Suárez Madrid–Barajas Airport","Location":"Madrid, Spain","Street_number":"s/n","Street":"Avenida de la Hispanidad","City":"Madrid","County":"Madrid","State":"Comunidad de Madrid","Country_iso":"ES","Country":"Spain","Postal_code":"28042","Phone":"+34 913 21 10 00","Latitude":"40.498333","Longitude":"-3.567598","Uct":"120","Website":"http://www.aena.es/es/aeropuerto-madrid-barajas/index.html"},{"Id":"8079","Iata":"VVI","Icao":"SLVR","Name":"Viru Viru International Airport","Location":"Santa Cruz de la Sierra, Bolivia","Street_number":"","Street":"Avenida G77","City":"Santa Cruz de la Sierra","County":"","State":"Departamento de Santa Cruz","Country_iso":"BO","Country":"Bolivia","Postal_code":"","Phone":"+591 3 3385000","Latitude":"-17.64312","Longitude":"-63.140755","Uct":"-240","Website":"http://www.sabsa.aero/"},{"Id":"5011","Iata":"MVD","Icao":"SUMU","Name":"Carrasco Gral. Cesáreo L. Berisso International Airport","Location":"Montevideo, Uruguay","Street_number":"","Street":"101","City":"Ciudad de la Costa","County":"","State":"Departamento de Canelones","Country_iso":"UY","Country":"Uruguay","Postal_code":"14000","Phone":"+598 2604 0329","Latitude":"-34.83682","Longitude":"-56.016518","Uct":"-180","Website":"http://www.aeropuertodecarrasco.com.uy/"},{"Id":"5794","Iata":"PBM","Icao":"SMJP","Name":"Johan Adolf Pengel International Airport","Location":"Paramaribo, Suriname","Street_number":"","Street":"","City":"Paramaribo","County":"Zuid-Para","State":"Para","Country_iso":"SR","Country":"Suriname","Postal_code":"","Phone":"+597 401-348","Latitude":"5.456003","Longitude":"-55.200058","Uct":"-180","Website":"https://www.japi-airport.com/"},{"Id":"4317","Iata":"LPB","Icao":"SLLP","Name":"El Alto International Airport","Location":"La Paz, Bolivia","Street_number":"","Street":"","City":"El Alto","County":"","State":"La Paz Department","Country_iso":"BO","Country":"Bolivia","Postal_code":"","Phone":"+591 2 2157300","Latitude":"-16.510248","Longitude":"-68.18829","Uct":"-240","Website":""},{"Id":"2563","Iata":"GIG","Icao":"SBGL","Name":"Rio de Janeiro–Galeão International Airport","Location":"Rio de Janeiro, Brazil","Street_number":"s/nº","Street":"Av. Vinte de Janeiro","City":"","County":"Rio de Janeiro","State":"Rio de Janeiro","Country_iso":"BR","Country":"Brazil","Postal_code":"21941-900","Phone":"+55 21 3004-6050","Latitude":"-22.805265","Longitude":"-43.25663","Uct":"-180","Website":"http://www.riogaleao.com/"},{"Id":"7166","Iata":"SYD","Icao":"YSSY","Name":"Sydney Airport (Kingsford Smith Airport)","Location":"Sydney, New South Wales, Australia","Street_number":"","Street":"","City":"Sydney","County":"","State":"New South Wales","Country_iso":"AU","Country":"Australia","Postal_code":"2020","Phone":"+61 2 9667 9111","Latitude":"-33.939922","Longitude":"151.17528","Uct":"660","Website":"http://www.sydneyairport.com.au/"},{"Id":"2320","Iata":"FLN","Icao":"SBFL","Name":"Hercílio Luz International Airport","Location":"Florianópolis, Santa Catarina, Brazil","Street_number":"3393","Street":"Avenida Deputado Diomício Freitas","City":"","County":"Florianópolis","State":"Santa Catarina","Country_iso":"BR","Country":"Brazil","Postal_code":"88047-900","Phone":"+55 48 3331-4000","Latitude":"-27.670118","Longitude":"-48.545967","Uct":"-180","Website":"http://www.infraero.gov.br/index.php/br/aeroportos/santa-catarina/aeroporto-internacional-de-florianopolis.html"},{"Id":"4686","Iata":"MIA","Icao":"KMIA","Name":"Miami International Airport","Location":"Miami, Florida, United States","Street_number":"2100","Street":"NW 42nd Ave","City":"Miami","County":"Miami-Dade County","State":"Florida","Country_iso":"US","Country":"United States","Postal_code":"33126","Phone":"+1 305-876-7000","Latitude":"25.795864","Longitude":"-80.28705","Uct":"-240","Website":"http://www.miami-airport.com/"},{"Id":"3406","Iata":"JFK","Icao":"KJFK","Name":"John F. Kennedy International Airport","Location":"New York City, New York, United States","Street_number":"","Street":"","City":"","County":"Queens County","State":"New York","Country_iso":"US","Country":"United States","Postal_code":"11430","Phone":"+1 718-244-4444","Latitude":"40.64131","Longitude":"-73.77814","Uct":"-240","Website":"https://www.jfkairport.com/"},{"Id":"1745","Iata":"DFW","Icao":"KDFW","Name":"Dallas/Fort Worth International Airport","Location":"Dallas / Fort Worth, Texas, United States","Street_number":"2400","Street":"Aviation Drive","City":"DFW Airport","County":"","State":"Texas","Country_iso":"US","Country":"United States","Postal_code":"75261","Phone":"+1 972-973-3112","Latitude":"32.89981","Longitude":"-97.04034","Uct":"-300","Website":"http://www.dfwairport.com/"},{"Id":"877","Iata":"BOG","Icao":"SKBO","Name":"El Dorado International Airport","Location":"Bogotá, Colombia","Street_number":"","Street":"","City":"","County":"","State":"Bogotá","Country_iso":"CO","Country":"Colombia","Postal_code":"","Phone":"+57 1 2662000","Latitude":"4.7014127","Longitude":"-74.14449","Uct":"-300","Website":"http://www.eldorado.aero/"},{"Id":"4598","Iata":"MEM","Icao":"KMEM","Name":"Memphis International Airport","Location":"Memphis, Tennessee, United States","Street_number":"2491","Street":"Winchester Road","City":"Memphis","County":"Shelby County","State":"Tennessee","Country_iso":"US","Country":"United States","Postal_code":"38116","Phone":"+1 901-922-8000","Latitude":"35.04207","Longitude":"-89.97917","Uct":"-300","Website":"http://www.flymemphis.com/"},{"Id":"921","Iata":"BQN","Icao":"TJBQ","Name":"Rafael Hernández Airport","Location":"Aguadilla, Puerto Rico, United States","Street_number":"","Street":"Hangar Road","City":"Aguadilla Pueblo","County":"","State":"Aguadilla","Country_iso":"PR","Country":"Puerto Rico","Postal_code":"603","Phone":"+1 787-890-6075","Latitude":"18.495396","Longitude":"-67.135574","Uct":"-240","Website":"http://www.prpa.gobierno.pr/"},{"Id":"1613","Iata":"CWB","Icao":"SBCT","Name":"Afonso Pena International Airport","Location":"Curitiba, Paraná, Brazil","Street_number":"","Street":"Av. Rocha Pombo","City":"","County":"São José dos Pinhais","State":"Paraná","Country_iso":"BR","Country":"Brazil","Postal_code":"83010-900","Phone":"+55 41 3381-1515","Latitude":"-25.532713","Longitude":"-49.17248","Uct":"-180","Website":"http://www.infraero.gov.br/index.php/br/aeroportos/parana/aeroporto-afonso-pena.html"},{"Id":"4202","Iata":"LIS","Icao":"LPPT","Name":"Lisbon Portela Airport","Location":"Lisbon, Portugal","Street_number":"","Street":"Alameda das Comunidades Portuguesas","City":"Lisboa","County":"","State":"Lisboa","Country_iso":"PT","Country":"Portugal","Postal_code":"1700-111","Phone":"+351 21 841 3500","Latitude":"38.775593","Longitude":"-9.135366","Uct":"60","Website":"http://www.ana.pt/pt-PT/Aeroportos/Lisboa/Lisboa/Paginas/HomeLisboa.aspx"},{"Id":"5640","Iata":"OPO","Icao":"LPPR","Name":"Francisco de Sá Carneiro Airport","Location":"Porto, Portugal","Street_number":"","Street":"","City":"Maia","County":"","State":"Porto District","Country_iso":"PT","Country":"Portugal","Postal_code":"4470-558","Phone":"+351 22 943 2400","Latitude":"41.24212","Longitude":"-8.678552","Uct":"60","Website":"http://www.ana.pt/pt-PT/Aeroportos/Porto/Porto/Paginas/HomePorto.aspx"},{"Id":"4565","Iata":"MDE","Icao":"SKRG","Name":"José María Córdova International Airport","Location":"Medellín, Colombia","Street_number":"","Street":"","City":"","County":"Rionegro","State":"Antioquia","Country_iso":"CO","Country":"Colombia","Postal_code":"54047","Phone":"+57 4 4025110","Latitude":"6.1707635","Longitude":"-75.42762","Uct":"-300","Website":"http://www.aeropuertorionegro.co/"},{"Id":"7767","Iata":"UIO","Icao":"SEQM","Name":"Mariscal Sucre International Airport","Location":"Quito, Ecuador","Street_number":"","Street":"","City":"Quito","County":"Distrito Metropolitano de Quito","State":"Pichincha","Country_iso":"EC","Country":"Ecuador","Postal_code":"170183","Phone":"+593 2-395-4200","Latitude":"-0.1243826","Longitude":"-78.36049","Uct":"-300","Website":"http://aeropuertoquito.aero/"},{"Id":"1254","Iata":"CFB","Icao":"SBCB","Name":"Cabo Frio International Airport","Location":"Cabo Frio, Rio de Janeiro, Brazil","Street_number":"s/n","Street":"Estrada Velha do Arraial do Cabo","City":"","County":"Cabo Frio","State":"Rio de Janeiro","Country_iso":"BR","Country":"Brazil","Postal_code":"28900-000","Phone":"+55 22 2647-9500","Latitude":"-22.925629","Longitude":"-42.079235","Uct":"-180","Website":"http://www.aeroportodecabofrio.com.br/"},{"Id":"1343","Iata":"CJC","Icao":"SCCF","Name":"El Loa Airport","Location":"Calama, Chile","Street_number":"","Street":"","City":"Calama","County":"El Loa","State":"Región de Antofagasta","Country_iso":"CL","Country":"Chile","Postal_code":"","Phone":"","Latitude":"-22.49511","Longitude":"-68.907906","Uct":"-180","Website":"http://www.avis.cl/sucursal/calama"},{"Id":"6150","Iata":"PTY","Icao":"MPTO","Name":"Tocumen International Airport","Location":"Panama City, Panama","Street_number":"","Street":"Avenida Domingo Díaz","City":"Panamá","County":"Panamá","State":"Panamá","Country_iso":"PA","Country":"Panama","Postal_code":"","Phone":"+507 238-2700","Latitude":"9.066701","Longitude":"-79.387375","Uct":"-300","Website":"http://www.tocumenpanama.aero/"},{"Id":"8947","Iata":"ZRH","Icao":"LSZH","Name":"Zürich Airport","Location":"Zürich, Switzerland","Street_number":"","Street":"","City":"Zürich-Flughafen","County":"","State":"Zürich","Country_iso":"CH","Country":"Switzerland","Postal_code":"8058","Phone":"+41 43 816 22 11","Latitude":"47.458218","Longitude":"8.555475","Uct":"120","Website":"https://www.flughafen-zuerich.ch/"},{"Id":"7359","Iata":"THE","Icao":"SBTE","Name":"Teresina–Senador Petrônio Portella Airport","Location":"Teresina, Piauí, Brazil","Street_number":"","Street":"","City":"","County":"Teresina","State":"Piauí","Country_iso":"BR","Country":"Brazil","Postal_code":"64006-700","Phone":"+55 86 3133-6270","Latitude":"-5.063463","Longitude":"-42.82119","Uct":"-180","Website":"http://www4.infraero.gov.br/aeroportos/aeroporto-de-teresina-senador-petronio-portella/"},{"Id":"1028","Iata":"BVB","Icao":"SBBV","Name":"Boa Vista International Airport","Location":"Boa Vista, Roraima, Brazil","Street_number":"","Street":"","City":"","County":"Boa Vista","State":"State of Roraima","Country_iso":"BR","Country":"Brazil","Postal_code":"","Phone":"+55 95 3198-0144","Latitude":"2.8419237","Longitude":"-60.69259","Uct":"-240","Website":"http://www.infraero.gov.br/"},{"Id":"1288","Iata":"CGR","Icao":"SBCG","Name":"Campo Grande International Airport","Location":"Campo Grande, Mato Grosso do Sul, Brazil","Street_number":"s/n","Street":"Av. Duque de Caxias","City":"","County":"Campo Grande","State":"Mato Grosso do Sul","Country_iso":"BR","Country":"Brazil","Postal_code":"79101-901","Phone":"+55 67 3368-6000","Latitude":"-20.468693","Longitude":"-54.67412","Uct":"-240","Website":"http://www4.infraero.gov.br/aeroportos/aeroporto-internacional-de-campo-grande/"},{"Id":"6182","Iata":"PVH","Icao":"SBPV","Name":"Governador Jorge Teixeira de Oliveira International Airport","Location":"Porto Velho, Rondônia, Brazil","Street_number":"S/N","Street":"Avenida Governador Jorge Teixeira","City":"","County":"Porto Velho","State":"Rondônia","Country_iso":"BR","Country":"Brazil","Postal_code":"76803-970","Phone":"+55 69 3219-7450","Latitude":"-8.71417","Longitude":"-63.89832","Uct":"-240","Website":""},{"Id":"6876","Iata":"SLZ","Icao":"SBSL","Name":"Marechal Cunha Machado International Airport","Location":"São Luís, Maranhão, Brazil","Street_number":"3503","Street":"Avenida dos Libaneses","City":"","County":"São Luís","State":"Maranhão","Country_iso":"BR","Country":"Brazil","Postal_code":"65056-480","Phone":"+55 98 3217-6100","Latitude":"-2.5849926","Longitude":"-44.23488","Uct":"-180","Website":"http://www.infraero.gov.br/"},{"Id":"268","Iata":"AMS","Icao":"EHAM","Name":"Amsterdam Airport Schiphol","Location":"Amsterdam, Netherlands","Street_number":"202","Street":"Evert van de Beekstraat","City":"Schiphol","County":"Haarlemmermeer","State":"Noord-Holland","Country_iso":"NL","Country":"Netherlands","Postal_code":"1118 CP","Phone":"+31 20 794 0800","Latitude":"52.31054","Longitude":"4.7682743","Uct":"120","Website":"http://www.schiphol.nl/"},{"Id":null,"Iata":null,"Icao":null,"Name":null,"Location":null,"Street_number":null,"Street":null,"City":null,"County":null,"State":null,"Country_iso":null,"Country":null,"Postal_code":null,"Phone":null,"Latitude":null,"Longitude":null,"Uct":null,"Website":null},{"Id":"1138","Iata":"CAC","Icao":"SBCA","Name":"Cascavel Airport (Adalberto Mendes da Silva Airport)","Location":"Cascavel, Paraná, Brazil","Street_number":"S/n","Street":"Avenida Itelo Webber","City":"","County":"Cascavel","State":"Paraná","Country_iso":"BR","Country":"Brazil","Postal_code":"85804-810","Phone":"+55 45 3228-2499","Latitude":"-25.001816","Longitude":"-53.50192","Uct":"-180","Website":"http://www.cettrans.com.br/aeroporto.php"},{"Id":"4642","Iata":"MGF","Icao":"SBMG","Name":"Sílvio Name Júnior Regional Airport","Location":"Maringá, Paraná, Brazil","Street_number":"S/n","Street":"Avenida Doutor Vladimir Babkov","City":"","County":"Maringá","State":"Paraná","Country_iso":"BR","Country":"Brazil","Postal_code":"","Phone":"+55 44 3366-3838","Latitude":"-23.48028","Longitude":"-52.011982","Uct":"-180","Website":"http://www.aeroportomaringa.com.br/"},{"Id":"4095","Iata":"LDB","Icao":"SBLO","Name":"Londrina–Governador José Richa Airport","Location":"Londrina, Paraná, Brazil","Street_number":"300","Street":"Rua Tenente João Maurício Medeiros","City":"","County":"Londrina","State":"Paraná","Country_iso":"BR","Country":"Brazil","Postal_code":"86039-100","Phone":"+55 43 3027-9000","Latitude":"-23.328579","Longitude":"-51.13799","Uct":"-180","Website":"http://www4.infraero.gov.br/aeroportos/aeroporto-de-londrina-governador-jose-richa/"},{"Id":"3166","Iata":"IGU","Icao":"SBFI","Name":"Foz do Iguaçu International Airport","Location":"Foz do Iguaçu, Paraná, Brazil","Street_number":"","Street":"","City":"","County":"Foz do Iguaçu","State":"Paraná","Country_iso":"BR","Country":"Brazil","Postal_code":"85863-900","Phone":"+55 45 3521-4200","Latitude":"-25.59771","Longitude":"-54.488514","Uct":"-180","Website":"http://www4.infraero.gov.br/aeroportos/aeroporto-internacional-de-foz-do-iguacu-cataratas/contato/"},{"Id":"5426","Iata":"NVT","Icao":"SBNF","Name":"Navegantes–Ministro Victor Konder International Airport","Location":"Navegantes, Santa Catarina, Brazil","Street_number":"1297","Street":"Rua Osmar Gaya","City":"","County":"Navegantes","State":"Santa Catarina","Country_iso":"BR","Country":"Brazil","Postal_code":"88372-900","Phone":"+55 47 3342-9200","Latitude":"-26.880535","Longitude":"-48.649086","Uct":"-180","Website":"http://www4.infraero.gov.br/aeroportos/aeroporto-internacional-de-navegantes-ministro-victor-konder/"},{"Id":"1629","Iata":"CXJ","Icao":"SBCX","Name":"Caxias do Sul Airport (Hugo Cantergiani Regional Airport)","Location":"Caxias do Sul, Rio Grande do Sul, Brazil","Street_number":"3451","Street":"Avenida Salgado Filho","City":"","County":"Caxias do Sul","State":"Rio Grande do Sul","Country_iso":"BR","Country":"Brazil","Postal_code":"95098-420","Phone":"+55 54 3901-1219","Latitude":"-29.19492","Longitude":"-51.18693","Uct":"-180","Website":"http://www.transportes.rs.gov.br/dap"},{"Id":"8322","Iata":"XAP","Icao":"SBCH","Name":"Serafin Enoss Bertaso Airport","Location":"Chapecó, Santa Catarina, Brazil","Street_number":"4535D","Street":"Acesso Florenal Ribeiro","City":"","County":"Chapecó","State":"Santa Catarina","Country_iso":"BR","Country":"Brazil","Postal_code":"89815-900","Phone":"+55 49 3322-1034","Latitude":"-27.134077","Longitude":"-52.66066","Uct":"-180","Website":"http://www.chapeco.sc.gov.br/"},{"Id":"5868","Iata":"PFB","Icao":"SBPF","Name":"Lauro Kurtz Airport","Location":"Passo Fundo, Rio Grande do Sul, Brazil","Street_number":"","Street":"Rodovia BR 285","City":"","County":"Passo Fundo","State":"Rio Grande do Sul","Country_iso":"BR","Country":"Brazil","Postal_code":"","Phone":"+55 54 3313-6566","Latitude":"-28.242554","Longitude":"-52.329823","Uct":"-180","Website":"http://www.passofundo.rs.gov.br/"},{"Id":"3465","Iata":"JOI","Icao":"SBJV","Name":"Joinville-Lauro Carneiro de Loyola Airport","Location":"Joinville, Santa Catarina, Brazil","Street_number":"9000","Street":"Avenida Santos Dumont","City":"","County":"Joinville","State":"Santa Catarina","Country_iso":"BR","Country":"Brazil","Postal_code":"89223-600","Phone":"+55 47 3417-4000","Latitude":"-26.224194","Longitude":"-48.801685","Uct":"-180","Website":"http://www4.infraero.gov.br/aeroportos/aeroporto-de-joinville-lauro-carneiro-de-loyola/"},{"Id":"6054","Iata":"PPB","Icao":"SBDN","Name":"Presidente Prudente Airport","Location":"Presidente Prudente, São Paulo, Brazil","Street_number":"s/nº","Street":"Assis Chateaubriand, km 459","City":"","County":"Presidente Prudente","State":"São Paulo","Country_iso":"BR","Country":"Brazil","Postal_code":"19053-680","Phone":"+55 18 3222-8099","Latitude":"-22.17834","Longitude":"-51.417664","Uct":"-180","Website":"http://www.daesp.sp.gov.br/aeroporto-detalhe/?id=879"},{"Id":"3354","Iata":"IZA","Icao":"SBZM","Name":"Presidente Itamar Franco Airport (Zona da Mata Regional Airport)","Location":"Juiz de Fora, Minas Gerais, Brazil","Street_number":"S/N","Street":"Rodovia MG 353, Klm 38","City":"","County":"Goianá","State":"Minas Gerais","Country_iso":"BR","Country":"Brazil","Postal_code":"36150-000","Phone":"+55 32 3274-6200","Latitude":"-21.510195","Longitude":"-43.16205","Uct":"-180","Website":"http://www.cazm.com.br/"},{"Id":"7740","Iata":"UDI","Icao":"SBUL","Name":"Ten. Cel. Av. César Bombonato Airport","Location":"Uberlândia, Minas Gerais, Brazil","Street_number":"100","Street":"Praça José Alves dos Santos","City":"","County":"Uberlândia","State":"Minas Gerais","Country_iso":"BR","Country":"Brazil","Postal_code":"38406","Phone":"+55 34 3233-5420","Latitude":"-18.88897","Longitude":"-48.230865","Uct":"-180","Website":"http://www4.infraero.gov.br/aeroportos/aeroporto-de-uberlandia-ten-cel-aviador-cesar-bombonato/"},{"Id":"908","Iata":"BPS","Icao":"SBPS","Name":"Porto Seguro Airport","Location":"Porto Seguro, Bahia, Brazil","Street_number":"68","Street":"Rua Primeiro de Maio","City":"","County":"Porto Seguro","State":"Bahia","Country_iso":"BR","Country":"Brazil","Postal_code":"45810-000","Phone":"+55 73 3288-1880","Latitude":"-16.439308","Longitude":"-39.081562","Uct":"-180","Website":"http://www.aeroportoseguro.com.br/"},{"Id":"1491","Iata":"CPV","Icao":"SBKG","Name":"Campina Grande Airport (Presidente João Suassuna Airport)","Location":"Campina Grande, Paraíba, Brazil","Street_number":"S/N","Street":"Avenida Uberaba","City":"","County":"Campina Grande","State":"Paraíba","Country_iso":"BR","Country":"Brazil","Postal_code":"58418-410","Phone":"+55 83 3332-9023","Latitude":"-7.2688785","Longitude":"-35.89402","Uct":"-180","Website":"http://www4.infraero.gov.br/aeroportos/aeroporto-de-campina-grande-presidente-joao-suassuna"},{"Id":"3473","Iata":"JPA","Icao":"SBJP","Name":"Presidente Castro Pinto International Airport","Location":"João Pessoa, Paraíba, Brazil","Street_number":"s/n","Street":"Aeroporto Internacional Presidente Castro Pinto","City":"","County":"João Pessoa","State":"Paraíba","Country_iso":"BR","Country":"Brazil","Postal_code":"58308-901","Phone":"+55 83 3041-4200","Latitude":"-7.146009","Longitude":"-34.948776","Uct":"-180","Website":"http://www4.infraero.gov.br/aeroportos/aeroporto-internacional-de-joao-pessoa-presidente-castro-pinto/"},{"Id":"3395","Iata":"JDO","Icao":"SBJU","Name":"Juazeiro do Norte Airport","Location":"Juazeiro do Norte, Ceará, Brazil","Street_number":"4000","Street":"Avenida Virgílio Távora","City":"","County":"Juazeiro do Norte","State":"Ceará","Country_iso":"BR","Country":"Brazil","Postal_code":"63020-735","Phone":"+55 88 3311-6500","Latitude":"-7.2150974","Longitude":"-39.27223","Uct":"-180","Website":"http://www4.infraero.gov.br/aeroportos/aeroporto-de-juazeiro-do-norte-orlando-bezerra-de-menezes/"},{"Id":"3248","Iata":"IOS","Icao":"SBIL","Name":"Ilhéus Jorge Amado Airport","Location":"Ilhéus, Bahia, Brazil","Street_number":"S/N","Street":"Rua Brigadeiro Eduardo Gomes","City":"","County":"Ilhéus","State":"Bahia","Country_iso":"BR","Country":"Brazil","Postal_code":"45654-070","Phone":"+55 73 3234-4000","Latitude":"-14.814534","Longitude":"-39.032215","Uct":"-180","Website":"http://ilheusairportjorgeamado.caracolpark.co/"},{"Id":"4552","Iata":"MCP","Icao":"SBMQ","Name":"Alberto Alcolumbre International Airport","Location":"Macapá, Amapá, Brazil","Street_number":"S/N","Street":"Rua Hildemar Maia","City":"","County":"Macapá","State":"Amapá","Country_iso":"BR","Country":"Brazil","Postal_code":"68908-119","Phone":"+55 96 3223-2323","Latitude":"0.0500081","Longitude":"-51.06711","Uct":"-180","Website":"http://www4.infraero.gov.br/aeroportos/aeroporto-internacional-de-macapa-alberto-alcolumbre/"},{"Id":"6003","Iata":"PMW","Icao":"SBPJ","Name":"Palmas–Brigadeiro Lysias Rodrigues Airport","Location":"Palmas, Tocantins, Brazil","Street_number":"s/n","Street":"Avenida Joaquim Teotônio Segurado","City":"","County":"Palmas","State":"Tocantins","Country_iso":"BR","Country":"Brazil","Postal_code":"","Phone":"+55 63 3219-3700","Latitude":"-10.295659","Longitude":"-48.35811","Uct":"-180","Website":"http://www.infraero.gov.br/"},{"Id":"4487","Iata":"MAB","Icao":"SBMA","Name":"João Correa da Rocha Airport","Location":"Marabá, Pará, Brazil","Street_number":"","Street":"","City":"","County":"Marabá","State":"Pará","Country_iso":"BR","Country":"Brazil","Postal_code":"","Phone":"+55 94 3324-1383","Latitude":"-5.3715158","Longitude":"-49.13676","Uct":"-180","Website":"http://www4.infraero.gov.br/aeroportos/aeroporto-de-maraba-joao-correa-da-rocha/"},{"Id":"1367","Iata":"CKS","Icao":"SBCJ","Name":"Carajás Airport","Location":"Parauapebas, Pará, Brazil","Street_number":"","Street":"","City":"","County":"Parauapebas","State":"Pará","Country_iso":"BR","Country":"Brazil","Postal_code":"68515-000","Phone":"+55 94 98403-1335","Latitude":"-6.114454","Longitude":"-50.001007","Uct":"-180","Website":"http://www.infraero.gov.br/"},{"Id":"6294","Iata":"RBR","Icao":"SBRB","Name":"Plácido de Castro International Airport","Location":"Rio Branco, Acre, Brazil","Street_number":"","Street":"","City":"","County":"","State":"","Country_iso":"","Country":"","Postal_code":"","Phone":"","Latitude":"0","Longitude":"0","Uct":"0","Website":""},{"Id":"1669","Iata":"CZS","Icao":"SBCZ","Name":"Cruzeiro do Sul International Airport","Location":"Cruzeiro do Sul, Acre, Brazil","Street_number":"","Street":"","City":"","County":"Cruzeiro do Sul","State":"Acre","Country_iso":"BR","Country":"Brazil","Postal_code":"69980-970","Phone":"+55 68 3311-1900","Latitude":"-7.598349","Longitude":"-72.77343","Uct":"-300","Website":"http://www4.infraero.gov.br/aeroportos/aeroporto-internacional-cruzeiro-do-sul/"},{"Id":"2279","Iata":"FEN","Icao":"SBFN","Name":"Fernando de Noronha Airport (Gov. Carlos Wilson Airport)","Location":"Fernando de Noronha, Pernambuco, Brazil","Street_number":"","Street":"","City":"","County":"Fernando de Noronha","State":"State of Pernambuco","Country_iso":"BR","Country":"Brazil","Postal_code":"53990-000","Phone":"","Latitude":"-3.8546145","Longitude":"-32.424385","Uct":"-120","Website":""},{"Id":null,"Iata":null,"Icao":null,"Name":null,"Location":null,"Street_number":null,"Street":null,"City":null,"County":null,"State":null,"Country_iso":null,"Country":null,"Postal_code":null,"Phone":null,"Latitude":null,"Longitude":null,"Uct":null,"Website":null},{"Id":"2761","Iata":"GVR","Icao":"SBGV","Name":"Coronel Altino Machado de Oliveira Airport","Location":"Governador Valadares, Minas Gerais, Brazil","Street_number":"s/n","Street":"Avenida Industrial","City":"","County":"Governador Valadares","State":"Minas Gerais","Country_iso":"BR","Country":"Brazil","Postal_code":"35040-260","Phone":"+55 33 3277-3935","Latitude":"-18.897291","Longitude":"-41.986973","Uct":"-180","Website":""},{"Id":"6815","Iata":"SJP","Icao":"SBSR","Name":"Prof. Eribelto Manoel Reino State Airport","Location":"São José do Rio Preto, São Paulo, Brazil","Street_number":"3505","Street":"Avenida dos Estudantes","City":"","County":"São José do Rio Preto","State":"São Paulo","Country_iso":"BR","Country":"Brazil","Postal_code":"15035-010","Phone":"+55 17 3233-1919","Latitude":"-20.812494","Longitude":"-49.404926","Uct":"-180","Website":"http://www.daesp.sp.gov.br/aeroporto-detalhe/?id=889"},{"Id":null,"Iata":null,"Icao":null,"Name":null,"Location":null,"Street_number":null,"Street":null,"City":null,"County":null,"State":null,"Country_iso":null,"Country":null,"Postal_code":null,"Phone":null,"Latitude":null,"Longitude":null,"Uct":null,"Website":null},{"Id":"6269","Iata":"RAO","Icao":"SBRP","Name":"Leite Lopes Airport","Location":"Ribeirão Preto, São Paulo, Brazil","Street_number":"","Street":"Avenida Thomaz Alberto Whately","City":"","County":"Ribeirão Preto","State":"São Paulo","Country_iso":"BR","Country":"Brazil","Postal_code":"14075-390","Phone":"+55 16 3626-3376","Latitude":"-21.139164","Longitude":"-47.77657","Uct":"-180","Website":"http://www.daesp.sp.gov.br/aeroporto-detalhe/?id=883"},{"Id":null,"Iata":null,"Icao":null,"Name":null,"Location":null,"Street_number":null,"Street":null,"City":null,"County":null,"State":null,"Country_iso":null,"Country":null,"Postal_code":null,"Phone":null,"Latitude":null,"Longitude":null,"Uct":null,"Website":null},{"Id":"4435","Iata":"LVR","Icao":"SILC","Name":"Bom Futuro Municipal Airport[2]","Location":"Lucas do Rio Verde, Mato Grosso, Brazil","Street_number":"s/n","Street":"Rod MT-449 KM 4","City":"","County":"Lucas do Rio Verde","State":"Mato Grosso","Country_iso":"BR","Country":"Brazil","Postal_code":"78455-000","Phone":"","Latitude":"-13.034962","Longitude":"-55.942123","Uct":"-240","Website":""},{"Id":"410","Iata":"ATL","Icao":"KATL","Name":"Hartsfield–Jackson Atlanta International Airport","Location":"Atlanta, Georgia, United States","Street_number":"6000","Street":"North Terminal Parkway","City":"Atlanta","County":"","State":"Georgia","Country_iso":"US","Country":"United States","Postal_code":"30320","Phone":"+1 800-897-1910","Latitude":"33.640728","Longitude":"-84.427704","Uct":"-240","Website":"http://www.atl.com/"},{"Id":"1956","Iata":"DXB","Icao":"OMDB","Name":"Dubai International Airport","Location":"Dubai, United Arab Emirates","Street_number":"","Street":"","City":"Dubai","County":"","State":"Dubai","Country_iso":"AE","Country":"United Arab Emirates","Postal_code":"","Phone":"+971 4 224 5555","Latitude":"25.253174","Longitude":"55.365673","Uct":"240","Website":"http://www.dubaiairports.ae/"},{"Id":"1911","Iata":"DSS","Icao":"GOBD","Name":"Blaise Diagne International Airport","Location":"Dakar, Senegal","Street_number":"","Street":"","City":"Ndiass","County":"","State":"Thiès Region","Country_iso":"SN","Country":"Senegal","Postal_code":"","Phone":"+221 33 939 69 00","Latitude":"14.670855","Longitude":"-17.067347","Uct":"0","Website":"http://www.dakaraeroport.com/"},{"Id":"1404","Iata":"CMG","Icao":"SBCR","Name":"Corumbá International Airport","Location":"Corumbá, Mato Grosso do Sul, Brazil","Street_number":"S/n","Street":"Rua Santos Dumont","City":"","County":"Corumbá","State":"Mato Grosso do Sul","Country_iso":"BR","Country":"Brazil","Postal_code":"79332-150","Phone":"+55 67 3231-3322","Latitude":"-19.013786","Longitude":"-57.66343","Uct":"-240","Website":"http://www4.infraero.gov.br/aeroportos/aeroporto-internacional-de-corumba/"},{"Id":"1105","Iata":"BYO","Icao":"SBDB","Name":"Bonito Airport","Location":"Bonito, Mato Grosso do Sul, Brazil","Street_number":"s/n","Street":"MS-178","City":"","County":"Bonito","State":"Mato Grosso do Sul","Country_iso":"BR","Country":"Brazil","Postal_code":"79290-000","Phone":"+55 67 3255-3222","Latitude":"-21.243193","Longitude":"-56.44983","Uct":"-240","Website":"http://www.portalbonito.com.br/servicos/informacoes"},{"Id":"3491","Iata":"JTC","Icao":"SBAE","Name":"Moussa Nakhl Tobias–Bauru/Arealva State Airport","Location":"Bauru, São Paulo, Brazil","Street_number":"km 5,5","Street":"Estrada Municipal Murilo Vilaça Maringoni","City":"","County":"Bauru","State":"São Paulo","Country_iso":"BR","Country":"Brazil","Postal_code":"17022-895","Phone":"+55 14 3277-6633","Latitude":"-22.165993","Longitude":"-49.07217","Uct":"-180","Website":"http://www.daesp.sp.gov.br/aeroporto-detalhe/?id=851"},{"Id":"5894","Iata":"PHB","Icao":"SBPB","Name":"Parnaíba-Prefeito Dr. João Silva Filho International Airport","Location":"Parnaíba, Piauí, Brazil","Street_number":"s/n","Street":"Rodovia BR-343","City":"","County":"Parnaíba","State":"Piauí","Country_iso":"BR","Country":"Brazil","Postal_code":"64206-260","Phone":"+55 86 3315-3300","Latitude":"-2.895248","Longitude":"-41.729797","Uct":"-180","Website":"http://www4.infraero.gov.br/aeroportos/aeroporto-internacional-de-parnaiba-prefeito-dr-joao-silva-filho/"},{"Id":null,"Iata":null,"Icao":null,"Name":null,"Location":null,"Street_number":null,"Street":null,"City":null,"County":null,"State":null,"Country_iso":null,"Country":null,"Postal_code":null,"Phone":null,"Latitude":null,"Longitude":null,"Uct":null,"Website":null},{"Id":"369","Iata":"ARU","Icao":"SBAU","Name":"Araçatuba Airport","Location":"Araçatuba, São Paulo, Brazil","Street_number":"","Street":"Via de Acesso Olegário Ferraz","City":"","County":"Araçatuba","State":"São Paulo","Country_iso":"BR","Country":"Brazil","Postal_code":"16052-800","Phone":"+55 18 3621-3001","Latitude":"-21.13759","Longitude":"-50.425983","Uct":"-180","Website":"http://www.daesp.sp.gov.br/aeroporto-detalhe/?id=841"},{"Id":"5861","Iata":"PET","Icao":"SBPK","Name":"João Simões Lopes Neto International Airport","Location":"Pelotas, Rio Grande do Sul, Brazil","Street_number":"S/n","Street":"Avenida Zeferino Costa","City":"","County":"Pelotas","State":"Rio Grande do Sul","Country_iso":"BR","Country":"Brazil","Postal_code":"96070-480","Phone":"+55 53 3223-1227","Latitude":"-31.715822","Longitude":"-52.33069","Uct":"-180","Website":"http://www.infraero.gov.br/"},{"Id":"7325","Iata":"TFF","Icao":"SBTF","Name":"Tefé Airport","Location":"Tefé, Amazonas, Brazil","Street_number":"","Street":"","City":"Tefé","County":"Tefé","State":"Amazonas","Country_iso":"BR","Country":"Brazil","Postal_code":"69470-000","Phone":"","Latitude":"-3.380402","Longitude":"-64.7251","Uct":"-240","Website":"http://www4.infraero.gov.br/aeroportos/aeroporto-de-tefe/"},{"Id":"7252","Iata":"TBT","Icao":"SBTT","Name":"Tabatinga International Airport","Location":"Tabatinga, Amazonas, Brazil","Street_number":"s/n","Street":"Praça Marechal-do-ar Eduardo Gomes","City":"","County":"Tabatinga","State":"Amazonas","Country_iso":"BR","Country":"Brazil","Postal_code":"69640-000","Phone":"+55 97 3412-1100","Latitude":"-4.25038","Longitude":"-69.93939","Uct":"-240","Website":"http://www.infraero.gov.br/"},{"Id":"411","Iata":"ATM","Icao":"SBHT","Name":"Altamira Airport","Location":"Altamira, Pará, Brazil","Street_number":"S/N","Street":"Avenida Tancredo Neves","City":"","County":"Altamira","State":"Pará","Country_iso":"BR","Country":"Brazil","Postal_code":"68372-590","Phone":"+55 93 3515-1976","Latitude":"-3.2535655","Longitude":"-52.24909","Uct":"-180","Website":"http://www4.infraero.gov.br/aeroportos/aeroporto-de-altamira-para"},{"Id":"3217","Iata":"IMP","Icao":"SBIZ","Name":"Imperatriz Airport (Prefeito Renato Moreira Airport)","Location":"Imperatriz, Maranhão, Brazil","Street_number":"S/N","Street":"Avenida Moacyr Spósito Ribeiro","City":"","County":"Imperatriz","State":"Maranhão","Country_iso":"BR","Country":"Brazil","Postal_code":"65913-415","Phone":"+55 99 3524-4555","Latitude":"-5.5316944","Longitude":"-47.45607","Uct":"-180","Website":"http://www4.infraero.gov.br/"},{"Id":"929","Iata":"BRA","Icao":"SNBR","Name":"Barreiras Airport","Location":"Barreiras, Bahia, Brazil","Street_number":"204","Street":"Rua Anapolina","City":"","County":"Barreiras","State":"Bahia","Country_iso":"BR","Country":"Brazil","Postal_code":"47806-470","Phone":"+55 77 3611-2361","Latitude":"-12.078983","Longitude":"-45.0102","Uct":"-180","Website":""},{"Id":"6557","Iata":"RVD","Icao":"SWLC","Name":"General Leite de Castro Airport","Location":"Rio Verde, Goiás, Brazil","Street_number":"s/nº","Street":"Rua do Ipê","City":"","County":"Rio Verde","State":"Goiás","Country_iso":"BR","Country":"Brazil","Postal_code":"75900-000","Phone":"+55 64 3620-2125","Latitude":"-17.836782","Longitude":"-50.958645","Uct":"-180","Website":""},{"Id":"4694","Iata":"MII","Icao":"SBML","Name":"Frank Miloye Milenkowichi–Marília State Airport","Location":"Marília, São Paulo, Brazil","Street_number":"2100","Street":"Avenida Brigadeiro Eduardo Gomes","City":"","County":"Marília","State":"São Paulo","Country_iso":"BR","Country":"Brazil","Postal_code":"17514-050","Phone":"+55 14 3433-4066","Latitude":"-22.19709","Longitude":"-49.92981","Uct":"-180","Website":""},{"Id":"7679","Iata":"TXF","Icao":"SNTF","Name":"Teixeira de Freitas Airport (9 de maio Airport)","Location":"Teixeira de Freitas, Bahia, Brazil","Street_number":"","Street":"Rua Santo Antônio","City":"","County":"Teixeira de Freitas","State":"Bahia","Country_iso":"BR","Country":"Brazil","Postal_code":"45320-000","Phone":"+55 71 99670-9061","Latitude":"-17.522982","Longitude":"-39.66908","Uct":"-180","Website":"https://www.facebook.com/aeroportodeteixeiradefreitas"},{"Id":"119","Iata":"AFL","Icao":"SBAT","Name":"Alta Floresta Airport","Location":"Alta Floresta, Mato Grosso, Brazil","Street_number":"","Street":"","City":"","County":"Alta Floresta","State":"State of Mato Grosso","Country_iso":"BR","Country":"Brazil","Postal_code":"78580-000","Phone":"+55 66 3521-2226","Latitude":"-9.872357","Longitude":"-56.105198","Uct":"-240","Website":""},{"Id":null,"Iata":null,"Icao":null,"Name":null,"Location":null,"Street_number":null,"Street":null,"City":null,"County":null,"State":null,"Country_iso":null,"Country":null,"Postal_code":null,"Phone":null,"Latitude":null,"Longitude":null,"Uct":null,"Website":null},{"Id":"6385","Iata":"RIA","Icao":"SBSM","Name":"Santa Maria Airport","Location":"Santa Maria, Rio Grande do Sul, Brazil","Street_number":"3249","Street":"Terminal Drive","City":"Santa Maria","County":"Santa Barbara County","State":"California","Country_iso":"US","Country":"United States","Postal_code":"93455","Phone":"+1 805-922-1726","Latitude":"34.89914","Longitude":"-120.44778","Uct":"-420","Website":"http://www.santamariaairport.com/"},{"Id":null,"Iata":null,"Icao":null,"Name":null,"Location":null,"Street_number":null,"Street":null,"City":null,"County":null,"State":null,"Country_iso":null,"Country":null,"Postal_code":null,"Phone":null,"Latitude":null,"Longitude":null,"Uct":null,"Website":null},{"Id":"2318","Iata":"FLL","Icao":"KFLL","Name":"Fort Lauderdale–Hollywood International Airport","Location":"Fort Lauderdale / Hollywood, Florida, United States","Street_number":"100","Street":"Terminal Drive","City":"Fort Lauderdale","County":"Broward County","State":"Florida","Country_iso":"US","Country":"United States","Postal_code":"33315","Phone":"+1 954-359-1200","Latitude":"26.074234","Longitude":"-80.150604","Uct":"-240","Website":"http://www.fll.net/"},{"Id":"5773","Iata":"PAP","Icao":"MTPP","Name":"Toussaint L'Ouverture International Airport","Location":"Port-au-Prince, Haiti","Street_number":"","Street":"Boulevard Toussaint Louverture","City":"Port-au-Prince","County":"","State":"Ouest","Country_iso":"HT","Country":"Haiti","Postal_code":"","Phone":"+509 48 65 6436","Latitude":"18.575655","Longitude":"-72.29489","Uct":"-240","Website":"http://pap.aan-haiti.com/"},{"Id":"6812","Iata":"SJL","Icao":"SBUA","Name":"São Gabriel da Cachoeira Airport","Location":"São Gabriel da Cachoeira, Amazonas, Brazil","Street_number":"","Street":"Estrada do Aeroporto","City":"","County":"São Gabriel da Cachoeira","State":"Amazonas","Country_iso":"BR","Country":"Brazil","Postal_code":"69750-000","Phone":"","Latitude":"-0.1510764","Longitude":"-66.9913","Uct":"-240","Website":""},{"Id":"1141","Iata":"CAF","Icao":"SWCA","Name":"Carauari Airport","Location":"Carauari, Amazonas, Brazil","Street_number":"600-628","Street":"Avenida Dom Pedro Segundo","City":"","County":"Carauari","State":"Amazonas","Country_iso":"BR","Country":"Brazil","Postal_code":"69500-000","Phone":"","Latitude":"-4.8755007","Longitude":"-66.89916","Uct":"-240","Website":""},{"Id":"2151","Iata":"ERN","Icao":"SWEI","Name":"Eirunepé Airport (Amaury Feitosa Tomaz Airport)","Location":"Eirunepé, Amazonas, Brazil","Street_number":"","Street":"","City":"","County":"Eirunepé","State":"Amazonas","Country_iso":"BR","Country":"Brazil","Postal_code":"69880-000","Phone":"+55 32 99107-5288","Latitude":"-6.6368523","Longitude":"-69.88315","Uct":"-240","Website":""},{"Id":"1340","Iata":"CIZ","Icao":"SWKO","Name":"Coari Airport","Location":"Coari, Amazonas, Brazil","Street_number":"","Street":"","City":"","County":"Coari","State":"State of Amazonas","Country_iso":"BR","Country":"Brazil","Postal_code":"69460-000","Phone":"","Latitude":"-4.88428","Longitude":"-65.349144","Uct":"-240","Website":""},{"Id":"5922","Iata":"PIN","Icao":"SWPI","Name":"Júlio Belém Airport","Location":"Parintins, Amazonas, Brazil","Street_number":"1","Street":"Estr. Odovaldo Novo","City":"","County":"Parintins","State":"Amazonas","Country_iso":"BR","Country":"Brazil","Postal_code":"69152-470","Phone":"+55 92 3533-2700","Latitude":"-2.669512","Longitude":"-56.76967","Uct":"-240","Website":""},{"Id":"4064","Iata":"LBR","Icao":"SWLB","Name":"Lábrea Airport","Location":"Lábrea, Amazonas, Brazil","Street_number":"","Street":"","City":"","County":"Lábrea","State":"Amazonas","Country_iso":"BR","Country":"Brazil","Postal_code":"69830-000","Phone":"","Latitude":"-7.2824507","Longitude":"-64.77184","Uct":"-240","Website":""},{"Id":null,"Iata":null,"Icao":null,"Name":null,"Location":null,"Street_number":null,"Street":null,"City":null,"County":null,"State":null,"Country_iso":null,"Country":null,"Postal_code":null,"Phone":null,"Latitude":null,"Longitude":null,"Uct":null,"Website":null},{"Id":"7487","Iata":"TMT","Icao":"SBTB","Name":"Porto Trombetas Airport","Location":"Porto Trombetas / Oriximiná, Pará, Brazil","Street_number":"","Street":"Rua Barão do Rio Branco","City":"","County":"Oriximiná","State":"Pará","Country_iso":"BR","Country":"Brazil","Postal_code":"68270-000","Phone":"","Latitude":"-1.4855014","Longitude":"-56.390137","Uct":"-180","Website":""},{"Id":"4027","Iata":"LAD","Icao":"FNLU","Name":"Quatro de Fevereiro Airport","Location":"Luanda, Angola","Street_number":"","Street":"","City":"Luanda","County":"Luanda","State":"Luanda Province","Country_iso":"AO","Country":"Angola","Postal_code":"","Phone":"+244 442 352 387","Latitude":"-8.847951","Longitude":"13.234862","Uct":"60","Website":"http://angolaairport.net/"},{"Id":"146","Iata":"AGT","Icao":"SGES","Name":"Guaraní International Airport","Location":"Ciudad del Este, Paraguay","Street_number":"","Street":"Ruta Internacional 7","City":"Minga Guazú","County":"Minga Guazú","State":"Departamento de Alto Paraná","Country_iso":"PY","Country":"Paraguay","Postal_code":"","Phone":"","Latitude":"-25.4555","Longitude":"-54.843594","Uct":"-180","Website":"http://www.dinac.gov.py/"},{"Id":"3100","Iata":"IAH","Icao":"KIAH","Name":"George Bush Intercontinental Airport","Location":"Houston, Texas, United States","Street_number":"2800","Street":"North Terminal Road","City":"Houston","County":"Harris County","State":"Texas","Country_iso":"US","Country":"United States","Postal_code":"77032","Phone":"+1 281-230-3100","Latitude":"29.99022","Longitude":"-95.336784","Uct":"-300","Website":"http://www.fly2houston.com/"},{"Id":"2214","Iata":"EWR","Icao":"KEWR","Name":"Newark Liberty International Airport","Location":"Newark, New Jersey, United States","Street_number":"3","Street":"Brewster Road","City":"Newark","County":"","State":"New Jersey","Country_iso":"US","Country":"United States","Postal_code":"7114","Phone":"+1 973-961-6000","Latitude":"40.689533","Longitude":"-74.17446","Uct":"-240","Website":"http://www.panynj.gov/airports/newark-liberty.html"},{"Id":"5647","Iata":"ORD","Icao":"KORD","Name":"O'Hare International Airport","Location":"Chicago, Illinois, United States","Street_number":"10000","Street":"W O'Hare Ave","City":"Chicago","County":"","State":"Illinois","Country_iso":"US","Country":"United States","Postal_code":"60666","Phone":"+1 800-832-6352","Latitude":"41.974163","Longitude":"-87.90732","Uct":"-300","Website":"http://www.flychicago.com/ohare/en/home/Pages/default.aspx"},{"Id":"1213","Iata":"CDG","Icao":"LFPG","Name":"Charles de Gaulle Airport (Roissy Airport)","Location":"Paris, Île-de-France, France","Street_number":"","Street":"","City":"Roissy-en-France","County":"","State":"Île-de-France","Country_iso":"FR","Country":"France","Postal_code":"95700","Phone":"+33 1 70 36 39 50","Latitude":"49.00969","Longitude":"2.5479245","Uct":"120","Website":"http://www.parisaeroport.fr/"},{"Id":"2371","Iata":"FRA","Icao":"EDDF","Name":"Frankfurt Airport","Location":"Frankfurt, Hessen, Germany","Street_number":"","Street":"","City":"Frankfurt","County":"Darmstadt","State":"Hesse","Country_iso":"DE","Country":"Germany","Postal_code":"60547","Phone":"+49 180 6 3724636","Latitude":"50.037933","Longitude":"8.562152","Uct":"120","Website":"http://www.frankfurt-airport.de/"},{"Id":"277","Iata":"ANC","Icao":"PANC","Name":"Ted Stevens Anchorage International Airport","Location":"Anchorage, Alaska, United States","Street_number":"5000","Street":"West International Airport Road","City":"Anchorage","County":"Anchorage","State":"Alaska","Country_iso":"US","Country":"United States","Postal_code":"99502","Phone":"+1 907-266-2526","Latitude":"61.175888","Longitude":"-149.99008","Uct":"-480","Website":"http://dot.state.ak.us/anc/"},{"Id":"4044","Iata":"LAX","Icao":"KLAX","Name":"Los Angeles International Airport","Location":"Los Angeles, California, United States","Street_number":"1","Street":"World Way","City":"Los Angeles","County":"Los Angeles County","State":"California","Country_iso":"US","Country":"United States","Postal_code":"90045","Phone":"+1 855-463-5252","Latitude":"33.94159","Longitude":"-118.40853","Uct":"-420","Website":"http://www.lawa.org/welcomelax.aspx"},{"Id":"3122","Iata":"ICN","Icao":"RKSI","Name":"Incheon International Airport","Location":"Seoul, South Korea","Street_number":"272","Street":"","City":"","County":"","State":"Incheon","Country_iso":"KR","Country":"South Korea","Postal_code":"","Phone":"+82 1577-2600","Latitude":"37.46019","Longitude":"126.4407","Uct":"540","Website":"http://www.airport.kr/"},{"Id":"6778","Iata":"SID","Icao":"GVAC","Name":"Amílcar Cabral International Airport","Location":"Sal, Cape Verde","Street_number":"","Street":"Aeroporto Internacional Amílcar Cabral","City":"Espargos","County":"","State":"Sal","Country_iso":"CV","Country":"Cape Verde","Postal_code":"4110","Phone":"+238 241 14 68","Latitude":"16.73458","Longitude":"-22.943975","Uct":"-60","Website":"http://www.asa.cv/index.php?option=com_content&view=article&id=137&Itemid=58"},{"Id":"4609","Iata":"MEX","Icao":"MMMX","Name":"Mexico City International Airport","Location":"Mexico City, Mexico","Street_number":"S/N","Street":"Av Capitan Carlos León","City":"Ciudad de México","County":"","State":"Ciudad de México","Country_iso":"MX","Country":"Mexico","Postal_code":"15620","Phone":"+52 55 2482 2400","Latitude":"19.436077","Longitude":"-99.07191","Uct":"-300","Website":"http://www.aicm.com.mx/"},{"Id":"2262","Iata":"FCO","Icao":"LIRF","Name":"Leonardo da Vinci–Fiumicino Airport","Location":"Rome, Lazio, Italy","Street_number":"","Street":"Via dell' Aeroporto di Fiumicino","City":"Fiumicino","County":"Città Metropolitana di Roma","State":"Lazio","Country_iso":"IT","Country":"Italy","Postal_code":"54","Phone":"+39 06 65951","Latitude":"41.79989","Longitude":"12.246239","Uct":"120","Website":"http://www.adr.it/"},{"Id":"5071","Iata":"MXP","Icao":"LIMC","Name":"Milan–Malpensa Airport","Location":"Milan, Lombardy, Italy","Street_number":"","Street":"","City":"","County":"Province of Varese","State":"Lombardy","Country_iso":"IT","Country":"Italy","Postal_code":"21010","Phone":"+39 02 232323","Latitude":"45.630062","Longitude":"8.725531","Uct":"120","Website":"http://www.milanomalpensa-airport.com/"},{"Id":"888","Iata":"BOS","Icao":"KBOS","Name":"Logan International Airport","Location":"Boston, Massachusetts, United States","Street_number":"1","Street":"Harborside Drive","City":"Boston","County":"Suffolk County","State":"Massachusetts","Country_iso":"US","Country":"United States","Postal_code":"2128","Phone":"+1 800-235-6426","Latitude":"42.365612","Longitude":"-71.00956","Uct":"-240","Website":"http://www.massport.com/logan-airport"},{"Id":"447","Iata":"AUX","Icao":"SWGN","Name":"Araguaína Airport","Location":"Araguaína, Tocantins, Brazil","Street_number":"280","Street":"Avenida Dionísio Farias","City":"","County":"Araguaína","State":"Tocantins","Country_iso":"BR","Country":"Brazil","Postal_code":"65907-230","Phone":"+55 63 99291-8995","Latitude":"-7.2283916","Longitude":"-48.240532","Uct":"-180","Website":""},{"Id":null,"Iata":null,"Icao":null,"Name":null,"Location":null,"Street_number":null,"Street":null,"City":null,"County":null,"State":null,"Country_iso":null,"Country":null,"Postal_code":null,"Phone":null,"Latitude":null,"Longitude":null,"Uct":null,"Website":null},{"Id":"8847","Iata":"YYZ","Icao":"CYYZ","Name":"Toronto Pearson International Airport","Location":"Toronto, Ontario, Canada","Street_number":"6301","Street":"Silver Dart Drive","City":"Mississauga","County":"","State":"Ontario","Country_iso":"CA","Country":"Canada","Postal_code":"L5P 1B2","Phone":"+1 416-247-7678","Latitude":"43.67772","Longitude":"-79.62482","Uct":"-240","Website":"http://www.torontopearson.com/"},{"Id":"8778","Iata":"YUL","Icao":"CYUL","Name":"Montréal–Pierre Elliott Trudeau International Airport","Location":"Montreal, Quebec, Canada","Street_number":"","Street":"","City":"","County":"Montreal","State":"Quebec","Country_iso":"CA","Country":"Canada","Postal_code":"","Phone":"+1 514-394-7377","Latitude":"45.465687","Longitude":"-73.74548","Uct":"-240","Website":"http://www.admtl.com/"},{"Id":"3290","Iata":"ISL","Icao":"LTFM","Name":"Istanbul New Airport","Location":"Istanbul, Turkey","Street_number":"","Street":"","City":"","County":"Bakırköy","State":"Istanbul","Country_iso":"TR","Country":"Turkey","Postal_code":"34149","Phone":"+90 212 463 30 00","Latitude":"40.98299","Longitude":"28.810442","Uct":"180","Website":"http://www.ataturkairport.com/"},{"Id":"3297","Iata":"IST","Icao":"LTBA","Name":"Istanbul Atatürk Airport","Location":"Istanbul, Turkey","Street_number":"","Street":"","City":"","County":"Bakırköy","State":"Istanbul","Country_iso":"TR","Country":"Turkey","Postal_code":"34149","Phone":"+90 212 463 30 00","Latitude":"40.98299","Longitude":"28.810442","Uct":"180","Website":"http://www.ataturkairport.com/"},{"Id":"1162","Iata":"CBB","Icao":"SLCB","Name":"Jorge Wilstermann International Airport","Location":"Cochabamba, Bolivia","Street_number":"","Street":"","City":"Cochabamba","County":"Cercado","State":"Cochabamba Department","Country_iso":"BO","Country":"Bolivia","Postal_code":"","Phone":"+591 4 4120400","Latitude":"-17.417048","Longitude":"-66.17871","Uct":"-240","Website":""},{"Id":"4181","Iata":"LHR","Icao":"EGLL","Name":"Heathrow Airport","Location":"London, England, United Kingdom","Street_number":"","Street":"","City":"Longford","County":"Greater London","State":"England","Country_iso":"GB","Country":"United Kingdom","Postal_code":"","Phone":"+44 844 335 1801","Latitude":"51.470024","Longitude":"-0.4542955","Uct":"60","Website":"http://www.heathrow.com/"},{"Id":"1481","Iata":"CPH","Icao":"EKCH","Name":"Copenhagen Airport, Kastrup","Location":"Copenhagen, Denmark","Street_number":"6","Street":"Lufthavnsboulevarden","City":"Kastrup","County":"","State":"","Country_iso":"DK","Country":"Denmark","Postal_code":"2770","Phone":"+45 32 31 32 31","Latitude":"55.618023","Longitude":"12.650763","Uct":"120","Website":"https://cph.dk/"},{"Id":"2520","Iata":"GEO","Icao":"SYCJ","Name":"Cheddi Jagan International Airport","Location":"Georgetown, Guyana","Street_number":"","Street":"Timeri","City":"East Bank Demerara","County":"","State":"Demerara-Mahaica","Country_iso":"GY","Country":"Guyana","Postal_code":"","Phone":"+592 261 2281","Latitude":"6.503833","Longitude":"-58.25308","Uct":"-240","Website":"http://www.cjairport-gy.com/"},{"Id":"8012","Iata":"VLN","Icao":"SVVA","Name":"Arturo Michelena International Airport","Location":"Valencia, Venezuela","Street_number":"","Street":"","City":"","County":"","State":"","Country_iso":"","Country":"","Postal_code":"","Phone":"","Latitude":"0","Longitude":"0","Uct":"0","Website":""},{"Id":null,"Iata":null,"Icao":null,"Name":null,"Location":null,"Street_number":null,"Street":null,"City":null,"County":null,"State":null,"Country_iso":null,"Country":null,"Postal_code":null,"Phone":null,"Latitude":null,"Longitude":null,"Uct":null,"Website":null},{"Id":"1200","Iata":"CCS","Icao":"SVMI","Name":"Simón Bolívar International Airport","Location":"Caracas, Venezuela","Street_number":"","Street":"","City":"Maiquetía","County":"Vargas","State":"Vargas","Country_iso":"VE","Country":"Venezuela","Postal_code":"1162","Phone":"+58 424-2067470","Latitude":"10.597259","Longitude":"-67.00534","Uct":"-240","Website":"http://www.aeropuerto-maiquetia.com.ve/"},{"Id":"3263","Iata":"IQQ","Icao":"SCDA","Name":"Diego Aracena International Airport","Location":"Iquique, Chile","Street_number":"","Street":"1","City":"","County":"Iquique","State":"Región de Tarapacá","Country_iso":"CL","Country":"Chile","Postal_code":"","Phone":"","Latitude":"-20.536407","Longitude":"-70.18052","Uct":"-180","Website":"http://www.aeropuertodiegoaracena.cl/"},{"Id":"3434","Iata":"JJG","Icao":"SBJA","Name":"Humberto Ghizzo Bortoluzzi Regional Airport","Location":"Jaguaruna, Santa Catarina, Brazil","Street_number":"","Street":"","City":"","County":"Jaguaruna","State":"Santa Catarina","Country_iso":"BR","Country":"Brazil","Postal_code":"88715-000","Phone":"+55 48 3624-8824","Latitude":"-28.676765","Longitude":"-49.066345","Uct":"-180","Website":"http://www.rdlaeroportos.com.br/"},{"Id":"6143","Iata":"PTQ","Icao":"SNMZ","Name":"Porto de Moz Airport","Location":"Porto de Moz, Pará, Brazil","Street_number":"","Street":"","City":"","County":"","State":"","Country_iso":"","Country":"","Postal_code":"","Phone":"","Latitude":"0","Longitude":"0","Uct":"0","Website":""},{"Id":"7728","Iata":"UBT","Icao":"SDUB","Name":"Ubatuba Airport (Gastão Madeira Airport)","Location":"Ubatuba, São Paulo, Brazil","Street_number":"","Street":"","City":"","County":"","State":"","Country_iso":"","Country":"","Postal_code":"","Phone":"","Latitude":"0","Longitude":"0","Uct":"0","Website":""},{"Id":"4537","Iata":"MBZ","Icao":"SWMW","Name":"Maués Airport","Location":"Maués, Amazonas, Brazil","Street_number":"1593","Street":"Estrada São João","City":"","County":"Maués","State":"Amazonas","Country_iso":"BR","Country":"Brazil","Postal_code":"69190-000","Phone":"","Latitude":"-3.374394","Longitude":"-57.723732","Uct":"-240","Website":""},{"Id":null,"Iata":null,"Icao":null,"Name":null,"Location":null,"Street_number":null,"Street":null,"City":null,"County":null,"State":null,"Country_iso":null,"Country":null,"Postal_code":null,"Phone":null,"Latitude":null,"Longitude":null,"Uct":null,"Website":null},{"Id":"5666","Iata":"ORX","Icao":"SNOX","Name":"Oriximiná Airport","Location":"Oriximiná, Pará, Brazil","Street_number":"","Street":"Rua Barão do Rio Branco","City":"","County":"Oriximiná","State":"Pará","Country_iso":"BR","Country":"Brazil","Postal_code":"68270-000","Phone":"","Latitude":"-1.4855014","Longitude":"-56.390137","Uct":"-180","Website":""},{"Id":null,"Iata":null,"Icao":null,"Name":null,"Location":null,"Street_number":null,"Street":null,"City":null,"County":null,"State":null,"Country_iso":null,"Country":null,"Postal_code":null,"Phone":null,"Latitude":null,"Longitude":null,"Uct":null,"Website":null},{"Id":"4870","Iata":"MPM","Icao":"FQMA","Name":"Maputo International Airport","Location":"Maputo, Mozambique","Street_number":"3267","Street":"Avenida Acordos De Lusaka","City":"2631 Maputo","County":"","State":"Maputo","Country_iso":"MZ","Country":"Mozambique","Postal_code":"","Phone":"+258 21 466 846","Latitude":"-25.92372","Longitude":"32.574867","Uct":"120","Website":"http://www.aeroportos.co.mz/"},{"Id":"53","Iata":"ACC","Icao":"DGAA","Name":"Kotoka International Airport","Location":"Accra, Ghana","Street_number":"","Street":"Airport Road","City":"Accra","County":"Accra Metropolis","State":"Greater Accra Region","Country_iso":"GH","Country":"Ghana","Postal_code":"","Phone":"+233 30 277 6171","Latitude":"5.6060953","Longitude":"-0.1681235","Uct":"0","Website":"http://www.gacl.com.gh/"}]